[
  {
    "id": "1",
    "name": "Georgia",
    "flag_path": "",
    "latitude": "42.315407",
    "longitude": "43.356892",
    "formatted_address": "Georgia",
    "status": "A",
    "rank": 1,
    "btn_text": "VIEW GEORGIA TOURS",
    "btn_url": "/georgia-tours"
  },
  {
    "id": "3",
    "name": "Armenia",
    "flag_path": "/library/flags/armenia.png",
    "latitude": "40.069099",
    "longitude": "45.038189",
    "formatted_address": "Armenia",
    "status": "A",
    "rank": 2,
    "btn_text": "",
    "btn_url": ""
  },
  {
    "id": "4",
    "name": "Azerbaijan",
    "flag_path": "/library/flags/ajerbaijan.png",
    "latitude": "40.143105",
    "longitude": "47.576927",
    "formatted_address": "Azerbaijan",
    "status": "A",
    "rank": 3,
    "btn_text": "",
    "btn_url": ""
  },
  {
    "id": "5",
    "name": "Argentina",
    "flag_path": "",
    "latitude": "-38.416097",
    "longitude": "-63.616672",
    "formatted_address": "Argentina",
    "status": "A",
    "rank": 4,
    "btn_text": "",
    "btn_url": ""
  },
  {
    "id": "6",
    "name": "Botswana",
    "flag_path": "",
    "latitude": "-22.328474",
    "longitude": "24.684866",
    "formatted_address": "Botswana",
    "status": "A",
    "rank": 5,
    "btn_text": "",
    "btn_url": ""
  },
  {
    "id": "7",
    "name": "Cambodia",
    "flag_path": "",
    "latitude": "12.565679",
    "longitude": "104.990963",
    "formatted_address": "Cambodia",
    "status": "A",
    "rank": 6,
    "btn_text": "",
    "btn_url": ""
  },
  {
    "id": "8",
    "name": "Italy",
    "flag_path": "",
    "latitude": "41.87194",
    "longitude": "12.56738",
    "formatted_address": "Italy",
    "status": "A",
    "rank": 7,
    "btn_text": "",
    "btn_url": ""
  },
  {
    "id": "9",
    "name": "Morocco",
    "flag_path": "",
    "latitude": "31.791702",
    "longitude": "-7.09262",
    "formatted_address": "Morocco",
    "status": "A",
    "rank": 8,
    "btn_text": "",
    "btn_url": ""
  },
  {
    "id": "10",
    "name": "Myanmar",
    "flag_path": "",
    "latitude": "21.913965",
    "longitude": "95.956223",
    "formatted_address": "Myanmar (Burma)",
    "status": "A",
    "rank": 9,
    "btn_text": "",
    "btn_url": ""
  },
  {
    "id": "11",
    "name": "South Africa",
    "flag_path": "",
    "latitude": "-30.559482",
    "longitude": "22.937506",
    "formatted_address": "South Africa",
    "status": "A",
    "rank": 10,
    "btn_text": "",
    "btn_url": ""
  },
  {
    "id": "12",
    "name": "Tanzania",
    "flag_path": "",
    "latitude": "-6.369028",
    "longitude": "34.888822",
    "formatted_address": "Tanzania",
    "status": "A",
    "rank": 11,
    "btn_text": "",
    "btn_url": ""
  },
  {
    "id": "13",
    "name": "Thailand",
    "flag_path": "",
    "latitude": "15.870032",
    "longitude": "100.992541",
    "formatted_address": "Thailand",
    "status": "A",
    "rank": 12,
    "btn_text": "",
    "btn_url": ""
  },
  {
    "id": "14",
    "name": "Untitled",
    "flag_path": "",
    "latitude": null,
    "longitude": null,
    "formatted_address": null,
    "status": "D",
    "rank": 0,
    "btn_text": null,
    "btn_url": null
  },
  {
    "id": "15",
    "name": "Uganda",
    "flag_path": "",
    "latitude": "1.373333",
    "longitude": "32.290275",
    "formatted_address": "Uganda",
    "status": "A",
    "rank": 13,
    "btn_text": "",
    "btn_url": ""
  },
  {
    "id": "16",
    "name": "Japan",
    "flag_path": "",
    "latitude": "",
    "longitude": "",
    "formatted_address": "",
    "status": "A",
    "rank": 0,
    "btn_text": "",
    "btn_url": ""
  }
]
